<?xml version="1.0" encoding="UTF-8"?>
<kml xmlns="http://earth.google.com/kml/2.0">
	<Folder>
		<name>
			Peaks of highest mountains visualizer
		</name>
		<Placemark>
			<Style>
				<LineStyle>
					<color>cc0000FF</color>
					<width>5.0</width>
				</LineStyle>
			</Style>
			<name>Mount Everest</name>
			<Point>
				<coordinates>86.92528,27.98806,0</coordinates>
			</Point>
		</Placemark>
		<Placemark>
			<Style>
				<LineStyle>
					<color>cc0000FF</color>
					<width>5.0</width>
				</LineStyle>
			</Style>
			<name>K2</name>
			<Point>
				<coordinates>76.51333,35.88139,0</coordinates>
			</Point>
		</Placemark>
		<Placemark>
			<Style>
				<LineStyle>
					<color>cc0000FF</color>
					<width>5.0</width>
				</LineStyle>
			</Style>
			<name>Kangchenjunga</name>
			<Point>
				<coordinates>88.1475,27.70333,0</coordinates>
			</Point>
		</Placemark>
		<Placemark>
			<Style>
				<LineStyle>
					<color>cc0000FF</color>
					<width>5.0</width>
				</LineStyle>
			</Style>
			<name>Lhotse</name>
			<Point>
				<coordinates>86.93306,27.96167,0</coordinates>
			</Point>
		</Placemark>
		<Placemark>
			<Style>
				<LineStyle>
					<color>cc0000FF</color>
					<width>5.0</width>
				</LineStyle>
			</Style>
			<name>Makalu</name>
			<Point>
				<coordinates>87.08889,27.88972,0</coordinates>
			</Point>
		</Placemark>
		<Placemark>
			<Style>
				<LineStyle>
					<color>cc0000FF</color>
					<width>5.0</width>
				</LineStyle>
			</Style>
			<name>Cho Oyu</name>
			<Point>
				<coordinates>86.66083,28.09417,0</coordinates>
			</Point>
		</Placemark>
		<Placemark>
			<Style>
				<LineStyle>
					<color>cc0000FF</color>
					<width>5.0</width>
				</LineStyle>
			</Style>
			<name>Dhaulagiri I</name>
			<Point>
				<coordinates>83.49306,28.69667,0</coordinates>
			</Point>
		</Placemark>
		<Placemark>
			<Style>
				<LineStyle>
					<color>cc0000FF</color>
					<width>5.0</width>
				</LineStyle>
			</Style>
			<name>Manaslu</name>
			<Point>
				<coordinates>84.55972,28.55,0</coordinates>
			</Point>
		</Placemark>
		<Placemark>
			<Style>
				<LineStyle>
					<color>cc0000FF</color>
					<width>5.0</width>
				</LineStyle>
			</Style>
			<name>Nanga Parbat</name>
			<Point>
				<coordinates>74.58917,35.23722,0</coordinates>
			</Point>
		</Placemark>
		<Placemark>
			<Style>
				<LineStyle>
					<color>cc0000FF</color>
					<width>5.0</width>
				</LineStyle>
			</Style>
			<name>Annapurna I</name>
			<Point>
				<coordinates>83.82028,28.59556,0</coordinates>
			</Point>
		</Placemark>
		<Placemark>
			<Style>
				<LineStyle>
					<color>cc0000FF</color>
					<width>5.0</width>
				</LineStyle>
			</Style>
			<name>Gasherbrum I</name>
			<Point>
				<coordinates>76.69639,35.72444,0</coordinates>
			</Point>
		</Placemark>
		<Placemark>
			<Style>
				<LineStyle>
					<color>cc0000FF</color>
					<width>5.0</width>
				</LineStyle>
			</Style>
			<name>Broad Peak</name>
			<Point>
				<coordinates>76.56833,35.81056,0</coordinates>
			</Point>
		</Placemark>
		<Placemark>
			<Style>
				<LineStyle>
					<color>cc0000FF</color>
					<width>5.0</width>
				</LineStyle>
			</Style>
			<name>Gasherbrum II</name>
			<Point>
				<coordinates>76.65333,35.75778,0</coordinates>
			</Point>
		</Placemark>
		<Placemark>
			<Style>
				<LineStyle>
					<color>cc0000FF</color>
					<width>5.0</width>
				</LineStyle>
			</Style>
			<name>Shishapangma</name>
			<Point>
				<coordinates>85.77861,28.35333,0</coordinates>
			</Point>
		</Placemark>
		<Placemark>
			<Style>
				<LineStyle>
					<color>cc0000FF</color>
					<width>5.0</width>
				</LineStyle>
			</Style>
			<name>Gyachung Kang</name>
			<Point>
				<coordinates>86.745,28.09806,0</coordinates>
			</Point>
		</Placemark>
		<Placemark>
			<Style>
				<LineStyle>
					<color>cc0000FF</color>
					<width>5.0</width>
				</LineStyle>
			</Style>
			<name>Gasherbrum III</name>
			<Point>
				<coordinates>76.64167,35.75917,0</coordinates>
			</Point>
		</Placemark>
		<Placemark>
			<Style>
				<LineStyle>
					<color>cc0000FF</color>
					<width>5.0</width>
				</LineStyle>
			</Style>
			<name>Annapurna II</name>
			<Point>
				<coordinates>84.12194,28.53472,0</coordinates>
			</Point>
		</Placemark>
		<Placemark>
			<Style>
				<LineStyle>
					<color>cc0000FF</color>
					<width>5.0</width>
				</LineStyle>
			</Style>
			<name>Gasherbrum IV</name>
			<Point>
				<coordinates>76.61611,35.76056,0</coordinates>
			</Point>
		</Placemark>
		<Placemark>
			<Style>
				<LineStyle>
					<color>cc0000FF</color>
					<width>5.0</width>
				</LineStyle>
			</Style>
			<name>Himalchuli</name>
			<Point>
				<coordinates>84.63972,28.43667,0</coordinates>
			</Point>
		</Placemark>
		<Placemark>
			<Style>
				<LineStyle>
					<color>cc0000FF</color>
					<width>5.0</width>
				</LineStyle>
			</Style>
			<name>Distaghil Sar</name>
			<Point>
				<coordinates>75.18778,36.32583,0</coordinates>
			</Point>
		</Placemark>
		<Placemark>
			<Style>
				<LineStyle>
					<color>cc0000FF</color>
					<width>5.0</width>
				</LineStyle>
			</Style>
			<name>Ngadi Chuli</name>
			<Point>
				<coordinates>84.5666667,28.50333,0</coordinates>
			</Point>
		</Placemark>
		<Placemark>
			<Style>
				<LineStyle>
					<color>cc0000FF</color>
					<width>5.0</width>
				</LineStyle>
			</Style>
			<name>Nuptse</name>
			<Point>
				<coordinates>86.88694,27.9675,0</coordinates>
			</Point>
		</Placemark>
		<Placemark>
			<Style>
				<LineStyle>
					<color>cc0000FF</color>
					<width>5.0</width>
				</LineStyle>
			</Style>
			<name>Khunyang Chhish</name>
			<Point>
				<coordinates>75.20778,36.20528,0</coordinates>
			</Point>
		</Placemark>
		<Placemark>
			<Style>
				<LineStyle>
					<color>cc0000FF</color>
					<width>5.0</width>
				</LineStyle>
			</Style>
			<name>Masherbrum</name>
			<Point>
				<coordinates>76.30583,35.64111,0</coordinates>
			</Point>
		</Placemark>
		<Placemark>
			<Style>
				<LineStyle>
					<color>cc0000FF</color>
					<width>5.0</width>
				</LineStyle>
			</Style>
			<name>Nanda Devi</name>
			<Point>
				<coordinates>79.97083,30.37583,0</coordinates>
			</Point>
		</Placemark>
		<Placemark>
			<Style>
				<LineStyle>
					<color>cc0000FF</color>
					<width>5.0</width>
				</LineStyle>
			</Style>
			<name>Chomo Lonzo</name>
			<Point>
				<coordinates>87.10778,27.93056,0</coordinates>
			</Point>
		</Placemark>
		<Placemark>
			<Style>
				<LineStyle>
					<color>cc0000FF</color>
					<width>5.0</width>
				</LineStyle>
			</Style>
			<name>Batura Sar</name>
			<Point>
				<coordinates>74.5225,36.51028,0</coordinates>
			</Point>
		</Placemark>
		<Placemark>
			<Style>
				<LineStyle>
					<color>cc00FF00</color>
					<width>5.0</width>
				</LineStyle>
			</Style>
			<name>Kanjut Sar</name>
			<Point>
				<coordinates>75.41694,36.20556,0</coordinates>
			</Point>
		</Placemark>
		<Placemark>
			<Style>
				<LineStyle>
					<color>cc00FF00</color>
					<width>5.0</width>
				</LineStyle>
			</Style>
			<name>Rakaposhi</name>
			<Point>
				<coordinates>74.48944,36.1425,0</coordinates>
			</Point>
		</Placemark>
		<Placemark>
			<Style>
				<LineStyle>
					<color>cc00FF00</color>
					<width>5.0</width>
				</LineStyle>
			</Style>
			<name>Namcha Barwa</name>
			<Point>
				<coordinates>95.05528,29.63111,0</coordinates>
			</Point>
		</Placemark>
		<Placemark>
			<Style>
				<LineStyle>
					<color>cc00FF00</color>
					<width>5.0</width>
				</LineStyle>
			</Style>
			<name>Kamet</name>
			<Point>
				<coordinates>79.59167,30.92,0</coordinates>
			</Point>
		</Placemark>
		<Placemark>
			<Style>
				<LineStyle>
					<color>cc00FF00</color>
					<width>5.0</width>
				</LineStyle>
			</Style>
			<name>Dhaulagiri II</name>
			<Point>
				<coordinates>83.38833,28.76278,0</coordinates>
			</Point>
		</Placemark>
		<Placemark>
			<Style>
				<LineStyle>
					<color>cc00FF00</color>
					<width>5.0</width>
				</LineStyle>
			</Style>
			<name>Saltoro Kangri</name>
			<Point>
				<coordinates>76.84806,35.39917,0</coordinates>
			</Point>
		</Placemark>
		<Placemark>
			<Style>
				<LineStyle>
					<color>cc00FF00</color>
					<width>5.0</width>
				</LineStyle>
			</Style>
			<name>Jannu</name>
			<Point>
				<coordinates>88.04444,27.68222,0</coordinates>
			</Point>
		</Placemark>
		<Placemark>
			<Style>
				<LineStyle>
					<color>cc00FF00</color>
					<width>5.0</width>
				</LineStyle>
			</Style>
			<name>Tirich Mir</name>
			<Point>
				<coordinates>71.84167,36.25528,0</coordinates>
			</Point>
		</Placemark>
		<Placemark>
			<Style>
				<LineStyle>
					<color>cc00FF00</color>
					<width>5.0</width>
				</LineStyle>
			</Style>
			<name>Molamenqing</name>
			<Point>
				<coordinates>85.80972,28.355,0</coordinates>
			</Point>
		</Placemark>
		<Placemark>
			<Style>
				<LineStyle>
					<color>cc00FF00</color>
					<width>5.0</width>
				</LineStyle>
			</Style>
			<name>Gurla Mandhata</name>
			<Point>
				<coordinates>81.29667,30.43861,0</coordinates>
			</Point>
		</Placemark>
		<Placemark>
			<Style>
				<LineStyle>
					<color>cc00FF00</color>
					<width>5.0</width>
				</LineStyle>
			</Style>
			<name>Saser Kangri</name>
			<Point>
				<coordinates>77.7525,34.8666667,0</coordinates>
			</Point>
		</Placemark>
		<Placemark>
			<Style>
				<LineStyle>
					<color>cc00FF00</color>
					<width>5.0</width>
				</LineStyle>
			</Style>
			<name>Chogolisa</name>
			<Point>
				<coordinates>76.57472,35.61306,0</coordinates>
			</Point>
		</Placemark>
		<Placemark>
			<Style>
				<LineStyle>
					<color>cc00FF00</color>
					<width>5.0</width>
				</LineStyle>
			</Style>
			<name>Dhaulagiri IV</name>
			<Point>
				<coordinates>83.31528,28.73583,0</coordinates>
			</Point>
		</Placemark>
		<Placemark>
			<Style>
				<LineStyle>
					<color>cc00FF00</color>
					<width>5.0</width>
				</LineStyle>
			</Style>
			<name>Kongur Tagh</name>
			<Point>
				<coordinates>75.31333,38.59333,0</coordinates>
			</Point>
		</Placemark>
		<Placemark>
			<Style>
				<LineStyle>
					<color>cc00FF00</color>
					<width>5.0</width>
				</LineStyle>
			</Style>
			<name>Dhaulagiri V</name>
			<Point>
				<coordinates>83.36139,28.73389,0</coordinates>
			</Point>
		</Placemark>
		<Placemark>
			<Style>
				<LineStyle>
					<color>cc00FF00</color>
					<width>5.0</width>
				</LineStyle>
			</Style>
			<name>Shispare</name>
			<Point>
				<coordinates>74.68083,36.44056,0</coordinates>
			</Point>
		</Placemark>
		<Placemark>
			<Style>
				<LineStyle>
					<color>cc00FF00</color>
					<width>5.0</width>
				</LineStyle>
			</Style>
			<name>Trivor</name>
			<Point>
				<coordinates>75.085,36.2875,0</coordinates>
			</Point>
		</Placemark>
		<Placemark>
			<Style>
				<LineStyle>
					<color>cc00FF00</color>
					<width>5.0</width>
				</LineStyle>
			</Style>
			<name>Gangkhar Puensum</name>
			<Point>
				<coordinates>90.45528,28.04722,0</coordinates>
			</Point>
		</Placemark>
		<Placemark>
			<Style>
				<LineStyle>
					<color>cc00FF00</color>
					<width>5.0</width>
				</LineStyle>
			</Style>
			<name>Gongga Shan</name>
			<Point>
				<coordinates>101.87972,29.59528,0</coordinates>
			</Point>
		</Placemark>
		<Placemark>
			<Style>
				<LineStyle>
					<color>cc00FF00</color>
					<width>5.0</width>
				</LineStyle>
			</Style>
			<name>Annapurna III</name>
			<Point>
				<coordinates>83.99,28.585,0</coordinates>
			</Point>
		</Placemark>
		<Placemark>
			<Style>
				<LineStyle>
					<color>cc00FF00</color>
					<width>5.0</width>
				</LineStyle>
			</Style>
			<name>Muztagh Ata</name>
			<Point>
				<coordinates>75.11611,38.27583,0</coordinates>
			</Point>
		</Placemark>
		<Placemark>
			<Style>
				<LineStyle>
					<color>cc00FF00</color>
					<width>5.0</width>
				</LineStyle>
			</Style>
			<name>Skyang Kangri</name>
			<Point>
				<coordinates>76.5675,35.92639,0</coordinates>
			</Point>
		</Placemark>
		<Placemark>
			<Style>
				<LineStyle>
					<color>cc00FF00</color>
					<width>5.0</width>
				</LineStyle>
			</Style>
			<name>Changtse</name>
			<Point>
				<coordinates>86.91417,28.02472,0</coordinates>
			</Point>
		</Placemark>
		<Placemark>
			<Style>
				<LineStyle>
					<color>cc00FF00</color>
					<width>5.0</width>
				</LineStyle>
			</Style>
			<name>Kula Kangri</name>
			<Point>
				<coordinates>90.61639,28.22694,0</coordinates>
			</Point>
		</Placemark>
		<Placemark>
			<Style>
				<LineStyle>
					<color>cc00FF00</color>
					<width>5.0</width>
				</LineStyle>
			</Style>
			<name>Kongur Tiube</name>
			<Point>
				<coordinates>75.19583,38.61583,0</coordinates>
			</Point>
		</Placemark>
		<Placemark>
			<Style>
				<LineStyle>
					<color>cc00FF00</color>
					<width>5.0</width>
				</LineStyle>
			</Style>
			<name>Mamostong Kangri</name>
			<Point>
				<coordinates>77.5775,35.14194,0</coordinates>
			</Point>
		</Placemark>
		<Placemark>
			<Style>
				<LineStyle>
					<color>cc00FF00</color>
					<width>5.0</width>
				</LineStyle>
			</Style>
			<name>Saser Kangri</name>
			<Point>
				<coordinates>77.80667,34.80472,0</coordinates>
			</Point>
		</Placemark>
		<Placemark>
			<Style>
				<LineStyle>
					<color>cc00FF00</color>
					<width>5.0</width>
				</LineStyle>
			</Style>
			<name>Ismail Samani Peak</name>
			<Point>
				<coordinates>72.01583,38.94306,0</coordinates>
			</Point>
		</Placemark>
		<Placemark>
			<Style>
				<LineStyle>
					<color>ccFF0000</color>
					<width>5.0</width>
				</LineStyle>
			</Style>
			<name>Saser Kangri</name>
			<Point>
				<coordinates>77.785,34.84556,0</coordinates>
			</Point>
		</Placemark>
		<Placemark>
			<Style>
				<LineStyle>
					<color>ccFF0000</color>
					<width>5.0</width>
				</LineStyle>
			</Style>
			<name>Noshaq</name>
			<Point>
				<coordinates>71.82861,36.43222,0</coordinates>
			</Point>
		</Placemark>
		<Placemark>
			<Style>
				<LineStyle>
					<color>ccFF0000</color>
					<width>5.0</width>
				</LineStyle>
			</Style>
			<name>Pumari Chhish</name>
			<Point>
				<coordinates>75.25028,36.21139,0</coordinates>
			</Point>
		</Placemark>
		<Placemark>
			<Style>
				<LineStyle>
					<color>ccFF0000</color>
					<width>5.0</width>
				</LineStyle>
			</Style>
			<name>Pasu Sar</name>
			<Point>
				<coordinates>74.58778,36.48778,0</coordinates>
			</Point>
		</Placemark>
		<Placemark>
			<Style>
				<LineStyle>
					<color>ccFF0000</color>
					<width>5.0</width>
				</LineStyle>
			</Style>
			<name>Yukshin Gardan Sar</name>
			<Point>
				<coordinates>75.37472,36.25111,0</coordinates>
			</Point>
		</Placemark>
		<Placemark>
			<Style>
				<LineStyle>
					<color>ccFF0000</color>
					<width>5.0</width>
				</LineStyle>
			</Style>
			<name>Teram Kangri</name>
			<Point>
				<coordinates>77.07833,35.58,0</coordinates>
			</Point>
		</Placemark>
		<Placemark>
			<Style>
				<LineStyle>
					<color>ccFF0000</color>
					<width>5.0</width>
				</LineStyle>
			</Style>
			<name>Jongsong Peak</name>
			<Point>
				<coordinates>88.13583,27.88167,0</coordinates>
			</Point>
		</Placemark>
		<Placemark>
			<Style>
				<LineStyle>
					<color>ccFF0000</color>
					<width>5.0</width>
				</LineStyle>
			</Style>
			<name>Malubiting</name>
			<Point>
				<coordinates>74.87528,36.00333,0</coordinates>
			</Point>
		</Placemark>
		<Placemark>
			<Style>
				<LineStyle>
					<color>ccFF0000</color>
					<width>5.0</width>
				</LineStyle>
			</Style>
			<name>Gangapurna</name>
			<Point>
				<coordinates>83.96361,28.605,0</coordinates>
			</Point>
		</Placemark>
		<Placemark>
			<Style>
				<LineStyle>
					<color>ccFF0000</color>
					<width>5.0</width>
				</LineStyle>
			</Style>
			<name>Jengish Chokusu</name>
			<Point>
				<coordinates>80.12972,42.03472,0</coordinates>
			</Point>
		</Placemark>
		<Placemark>
			<Style>
				<LineStyle>
					<color>ccFF0000</color>
					<width>5.0</width>
				</LineStyle>
			</Style>
			<name>K12</name>
			<Point>
				<coordinates>77.02222,35.29583,0</coordinates>
			</Point>
		</Placemark>
		<Placemark>
			<Style>
				<LineStyle>
					<color>ccFF0000</color>
					<width>5.0</width>
				</LineStyle>
			</Style>
			<name>Yangra</name>
			<Point>
				<coordinates>85.12722,28.39139,0</coordinates>
			</Point>
		</Placemark>
		<Placemark>
			<Style>
				<LineStyle>
					<color>ccFF0000</color>
					<width>5.0</width>
				</LineStyle>
			</Style>
			<name>Sia Kangri</name>
			<Point>
				<coordinates>76.76167,35.66333,0</coordinates>
			</Point>
		</Placemark>
		<Placemark>
			<Style>
				<LineStyle>
					<color>ccFF0000</color>
					<width>5.0</width>
				</LineStyle>
			</Style>
			<name>Momhil Sar</name>
			<Point>
				<coordinates>75.03639,36.31778,0</coordinates>
			</Point>
		</Placemark>
		<Placemark>
			<Style>
				<LineStyle>
					<color>ccFF0000</color>
					<width>5.0</width>
				</LineStyle>
			</Style>
			<name>Kabru</name>
			<Point>
				<coordinates>88.1166667,27.63389,0</coordinates>
			</Point>
		</Placemark>
		<Placemark>
			<Style>
				<LineStyle>
					<color>ccFF0000</color>
					<width>5.0</width>
				</LineStyle>
			</Style>
			<name>Skil Brum</name>
			<Point>
				<coordinates>76.42861,35.85083,0</coordinates>
			</Point>
		</Placemark>
		<Placemark>
			<Style>
				<LineStyle>
					<color>ccFF0000</color>
					<width>5.0</width>
				</LineStyle>
			</Style>
			<name>Haramosh</name>
			<Point>
				<coordinates>74.8975,35.84,0</coordinates>
			</Point>
		</Placemark>
		<Placemark>
			<Style>
				<LineStyle>
					<color>ccFF0000</color>
					<width>5.0</width>
				</LineStyle>
			</Style>
			<name>Istor-o-Nal</name>
			<Point>
				<coordinates>71.89833,36.37556,0</coordinates>
			</Point>
		</Placemark>
		<Placemark>
			<Style>
				<LineStyle>
					<color>ccFF0000</color>
					<width>5.0</width>
				</LineStyle>
			</Style>
			<name>Ghent Kangri</name>
			<Point>
				<coordinates>76.80056,35.51778,0</coordinates>
			</Point>
		</Placemark>
		<Placemark>
			<Style>
				<LineStyle>
					<color>ccFF0000</color>
					<width>5.0</width>
				</LineStyle>
			</Style>
			<name>Ultar Sar</name>
			<Point>
				<coordinates>74.7166667,36.39083,0</coordinates>
			</Point>
		</Placemark>
		<Placemark>
			<Style>
				<LineStyle>
					<color>ccFF0000</color>
					<width>5.0</width>
				</LineStyle>
			</Style>
			<name>Rimo I</name>
			<Point>
				<coordinates>77.36889,35.355,0</coordinates>
			</Point>
		</Placemark>
		<Placemark>
			<Style>
				<LineStyle>
					<color>ccFF0000</color>
					<width>5.0</width>
				</LineStyle>
			</Style>
			<name>Churen Himal</name>
			<Point>
				<coordinates>83.2175,28.73472,0</coordinates>
			</Point>
		</Placemark>
		<Placemark>
			<Style>
				<LineStyle>
					<color>ccFF0000</color>
					<width>5.0</width>
				</LineStyle>
			</Style>
			<name>Teram Kangri III</name>
			<Point>
				<coordinates>77.04806,35.59972,0</coordinates>
			</Point>
		</Placemark>
		<Placemark>
			<Style>
				<LineStyle>
					<color>ccFF0000</color>
					<width>5.0</width>
				</LineStyle>
			</Style>
			<name>Sherpi Kangri</name>
			<Point>
				<coordinates>76.78139,35.46611,0</coordinates>
			</Point>
		</Placemark>
		<Placemark>
			<Style>
				<LineStyle>
					<color>ccFF0000</color>
					<width>5.0</width>
				</LineStyle>
			</Style>
			<name>Labuche Kang</name>
			<Point>
				<coordinates>86.35083,28.30417,0</coordinates>
			</Point>
		</Placemark>
		<Placemark>
			<Style>
				<LineStyle>
					<color>cc008000</color>
					<width>5.0</width>
				</LineStyle>
			</Style>
			<name>Kirat Chuli</name>
			<Point>
				<coordinates>88.19528,27.78778,0</coordinates>
			</Point>
		</Placemark>
		<Placemark>
			<Style>
				<LineStyle>
					<color>cc008000</color>
					<width>5.0</width>
				</LineStyle>
			</Style>
			<name>Abi Gamin</name>
			<Point>
				<coordinates>79.6025,30.9325,0</coordinates>
			</Point>
		</Placemark>
		<Placemark>
			<Style>
				<LineStyle>
					<color>cc008000</color>
					<width>5.0</width>
				</LineStyle>
			</Style>
			<name>Nangpai Gosum</name>
			<Point>
				<coordinates>86.61417,28.07333,0</coordinates>
			</Point>
		</Placemark>
		<Placemark>
			<Style>
				<LineStyle>
					<color>cc008000</color>
					<width>5.0</width>
				</LineStyle>
			</Style>
			<name>Gimmigela</name>
			<Point>
				<coordinates>88.15861,27.74083,0</coordinates>
			</Point>
		</Placemark>
		<Placemark>
			<Style>
				<LineStyle>
					<color>cc008000</color>
					<width>5.0</width>
				</LineStyle>
			</Style>
			<name>Saraghrar</name>
			<Point>
				<coordinates>72.115,36.5475,0</coordinates>
			</Point>
		</Placemark>
		<Placemark>
			<Style>
				<LineStyle>
					<color>cc008000</color>
					<width>5.0</width>
				</LineStyle>
			</Style>
			<name>Jomolhari</name>
			<Point>
				<coordinates>89.26778,27.82667,0</coordinates>
			</Point>
		</Placemark>
		<Placemark>
			<Style>
				<LineStyle>
					<color>cc008000</color>
					<width>5.0</width>
				</LineStyle>
			</Style>
			<name>Chamlang</name>
			<Point>
				<coordinates>86.97972,27.775,0</coordinates>
			</Point>
		</Placemark>
		<Placemark>
			<Style>
				<LineStyle>
					<color>cc008000</color>
					<width>5.0</width>
				</LineStyle>
			</Style>
			<name>Chongtar</name>
			<Point>
				<coordinates>76.42917,35.91528,0</coordinates>
			</Point>
		</Placemark>
		<Placemark>
			<Style>
				<LineStyle>
					<color>cc008000</color>
					<width>5.0</width>
				</LineStyle>
			</Style>
			<name>Baltoro Kangri</name>
			<Point>
				<coordinates>76.67333,35.63917,0</coordinates>
			</Point>
		</Placemark>
		<Placemark>
			<Style>
				<LineStyle>
					<color>cc008000</color>
					<width>5.0</width>
				</LineStyle>
			</Style>
			<name>Siguang Ri</name>
			<Point>
				<coordinates>86.685,28.14722,0</coordinates>
			</Point>
		</Placemark>
		<Placemark>
			<Style>
				<LineStyle>
					<color>cc008000</color>
					<width>5.0</width>
				</LineStyle>
			</Style>
			<name>The Crown</name>
			<Point>
				<coordinates>76.20583,36.10667,0</coordinates>
			</Point>
		</Placemark>
		<Placemark>
			<Style>
				<LineStyle>
					<color>cc008000</color>
					<width>5.0</width>
				</LineStyle>
			</Style>
			<name>Gyala Peri</name>
			<Point>
				<coordinates>94.96861,29.81444,0</coordinates>
			</Point>
		</Placemark>
		<Placemark>
			<Style>
				<LineStyle>
					<color>cc008000</color>
					<width>5.0</width>
				</LineStyle>
			</Style>
			<name>Porong Ri</name>
			<Point>
				<coordinates>85.72,28.38944,0</coordinates>
			</Point>
		</Placemark>
		<Placemark>
			<Style>
				<LineStyle>
					<color>cc008000</color>
					<width>5.0</width>
				</LineStyle>
			</Style>
			<name>Baintha Brakk</name>
			<Point>
				<coordinates>75.75333,35.9475,0</coordinates>
			</Point>
		</Placemark>
		<Placemark>
			<Style>
				<LineStyle>
					<color>cc008000</color>
					<width>5.0</width>
				</LineStyle>
			</Style>
			<name>Yutmaru Sar</name>
			<Point>
				<coordinates>75.36722,36.22639,0</coordinates>
			</Point>
		</Placemark>
		<Placemark>
			<Style>
				<LineStyle>
					<color>cc008000</color>
					<width>5.0</width>
				</LineStyle>
			</Style>
			<name>K6</name>
			<Point>
				<coordinates>76.55167,35.41833,0</coordinates>
			</Point>
		</Placemark>
		<Placemark>
			<Style>
				<LineStyle>
					<color>cc008000</color>
					<width>5.0</width>
				</LineStyle>
			</Style>
			<name>Kangpenqing</name>
			<Point>
				<coordinates>85.54556,28.55083,0</coordinates>
			</Point>
		</Placemark>
		<Placemark>
			<Style>
				<LineStyle>
					<color>cc008000</color>
					<width>5.0</width>
				</LineStyle>
			</Style>
			<name>Muztagh Tower</name>
			<Point>
				<coordinates>76.36111,35.82778,0</coordinates>
			</Point>
		</Placemark>
		<Placemark>
			<Style>
				<LineStyle>
					<color>cc008000</color>
					<width>5.0</width>
				</LineStyle>
			</Style>
			<name>Mana</name>
			<Point>
				<coordinates>79.61528,30.88056,0</coordinates>
			</Point>
		</Placemark>
		<Placemark>
			<Style>
				<LineStyle>
					<color>cc008000</color>
					<width>5.0</width>
				</LineStyle>
			</Style>
			<name>Dhaulagiri VI</name>
			<Point>
				<coordinates>83.27417,28.70861,0</coordinates>
			</Point>
		</Placemark>
		<Placemark>
			<Style>
				<LineStyle>
					<color>cc008000</color>
					<width>5.0</width>
				</LineStyle>
			</Style>
			<name>Diran</name>
			<Point>
				<coordinates>74.66167,36.12028,0</coordinates>
			</Point>
		</Placemark>
		<Placemark>
			<Style>
				<LineStyle>
					<color>cc008000</color>
					<width>5.0</width>
				</LineStyle>
			</Style>
			<name>Labuche Kang</name>
			<Point>
				<coordinates>86.38389,28.30139,0</coordinates>
			</Point>
		</Placemark>
		<Placemark>
			<Style>
				<LineStyle>
					<color>cc008000</color>
					<width>5.0</width>
				</LineStyle>
			</Style>
			<name>Putha Hiunchuli</name>
			<Point>
				<coordinates>83.14611,28.74778,0</coordinates>
			</Point>
		</Placemark>
		<Placemark>
			<Style>
				<LineStyle>
					<color>cc008000</color>
					<width>5.0</width>
				</LineStyle>
			</Style>
			<name>Apsarasas Kangri</name>
			<Point>
				<coordinates>77.14861,35.53861,0</coordinates>
			</Point>
		</Placemark>
		<Placemark>
			<Style>
				<LineStyle>
					<color>cc008000</color>
					<width>5.0</width>
				</LineStyle>
			</Style>
			<name>Mukut Parbat</name>
			<Point>
				<coordinates>79.57,30.94917,0</coordinates>
			</Point>
		</Placemark>
		<Placemark>
			<Style>
				<LineStyle>
					<color>cc008000</color>
					<width>5.0</width>
				</LineStyle>
			</Style>
			<name>Rimo III</name>
			<Point>
				<coordinates>77.36167,35.37528,0</coordinates>
			</Point>
		</Placemark>
		<Placemark>
			<Style>
				<LineStyle>
					<color>cc008000</color>
					<width>5.0</width>
				</LineStyle>
			</Style>
			<name>Langtang Lirung</name>
			<Point>
				<coordinates>85.51694,28.25611,0</coordinates>
			</Point>
		</Placemark>
		<Placemark>
			<Style>
				<LineStyle>
					<color>cc008000</color>
					<width>5.0</width>
				</LineStyle>
			</Style>
			<name>Karjiang</name>
			<Point>
				<coordinates>90.64694,28.2575,0</coordinates>
			</Point>
		</Placemark>
		<Placemark>
			<Style>
				<LineStyle>
					<color>cc008000</color>
					<width>5.0</width>
				</LineStyle>
			</Style>
			<name>Annapurna Dakshin</name>
			<Point>
				<coordinates>83.80611,28.51833,0</coordinates>
			</Point>
		</Placemark>
		<Placemark>
			<Style>
				<LineStyle>
					<color>cc008000</color>
					<width>5.0</width>
				</LineStyle>
			</Style>
			<name>Khartaphu</name>
			<Point>
				<coordinates>86.9775,28.06361,0</coordinates>
			</Point>
		</Placemark>
		<Placemark>
			<Style>
				<LineStyle>
					<color>cc008000</color>
					<width>5.0</width>
				</LineStyle>
			</Style>
			<name>Tongshanjiabu</name>
			<Point>
				<coordinates>89.9575,28.18667,0</coordinates>
			</Point>
		</Placemark>
		<Placemark>
			<Style>
				<LineStyle>
					<color>cc008000</color>
					<width>5.0</width>
				</LineStyle>
			</Style>
			<name>Malangutti Sar</name>
			<Point>
				<coordinates>75.14917,36.36306,0</coordinates>
			</Point>
		</Placemark>
		<Placemark>
			<Style>
				<LineStyle>
					<color>cc008000</color>
					<width>5.0</width>
				</LineStyle>
			</Style>
			<name>Noijin Kangsang</name>
			<Point>
				<coordinates>90.17833,28.94667,0</coordinates>
			</Point>
		</Placemark>
		<Placemark>
			<Style>
				<LineStyle>
					<color>cc008000</color>
					<width>5.0</width>
				</LineStyle>
			</Style>
			<name>Langtang Ri</name>
			<Point>
				<coordinates>85.68361,28.38139,0</coordinates>
			</Point>
		</Placemark>
		<Placemark>
			<Style>
				<LineStyle>
					<color>cc008000</color>
					<width>5.0</width>
				</LineStyle>
			</Style>
			<name>Kangphu Kang</name>
			<Point>
				<coordinates>90.06333,28.15556,0</coordinates>
			</Point>
		</Placemark>
		<Placemark>
			<Style>
				<LineStyle>
					<color>cc008000</color>
					<width>5.0</width>
				</LineStyle>
			</Style>
			<name>Singhi Kangri</name>
			<Point>
				<coordinates>76.98361,35.59972,0</coordinates>
			</Point>
		</Placemark>
		<Placemark>
			<Style>
				<LineStyle>
					<color>cc008000</color>
					<width>5.0</width>
				</LineStyle>
			</Style>
			<name>Lupghar Sar</name>
			<Point>
				<coordinates>75.03694,36.35028,0</coordinates>
			</Point>
		</Placemark>
	</Folder>
</kml>